[
    {"name": "Comini Microschool", "state": "Maharashtra", "year": 2021, "latitude": 18.5204, "longitude": 73.8567},
    {"name": "Sweven Montessori", "state": "Maharashtra", "year": 2018, "latitude": 18.5204, "longitude": 73.8567},
    {"name": "Shishyaa", "state": "Maharashtra", "year": 2015, "latitude": 18.5204, "longitude": 73.8567},
    {"name": "Tridha", "state": "Maharashtra", "year": 2000, "latitude": 18.5204, "longitude": 73.8567},
    {"name": "Golden Spiral", "state": "Maharashtra", "year": 2013, "latitude": 18.5204, "longitude": 73.8567},
    {"name": "Inodai", "state": "Maharashtra", "year": 2011, "latitude": 18.5204, "longitude": 73.8567},
    {"name": "Sadhana Center @ Learner's Collective", "state": "Maharashtra", "year": null, "latitude": 18.5204, "longitude": 73.8567},
    {"name": "Kalpavruksha", "state": "Maharashtra", "year": 2007, "latitude": 18.5204, "longitude": 73.8567},
    {"name": "Shishuvan", "state": "Maharashtra", "year": 2001, "latitude": 18.5204, "longitude": 73.8567},
    {"name": "Da Vinci Montessori", "state": "Maharashtra", "year": 2010, "latitude": 18.5204, "longitude": 73.8567},
    {"name": "Besant Montessori", "state": "Maharashtra", "year": 1948, "latitude": 18.5204, "longitude": 73.8567},
    {"name": "Ubuntu Montessori", "state": "Maharashtra", "year": 2017, "latitude": 18.5204, "longitude": 73.8567},
    {"name": "Greenhouse Montessori", "state": "Maharashtra", "year": 1982, "latitude": 18.5204, "longitude": 73.8567},
    {"name": "Harmony Montessori", "state": "Maharashtra", "year": 1994, "latitude": 18.5204, "longitude": 73.8567},
    {"name": "Savi Montessori", "state": "Maharashtra", "year": 2010, "latitude": 18.5204, "longitude": 73.8567},
    {"name": "Sapling Diya - The Montessori Academy", "state": "Maharashtra", "year": 2020, "latitude": 18.5204, "longitude": 73.8567},
    {"name": "DLRC", "state": "Maharashtra", "year": 2015, "latitude": 18.5204, "longitude": 73.8567},
    {"name": "Amor", "state": "Maharashtra", "year": 2012, "latitude": 18.5204, "longitude": 73.8567},
    {"name": "Rudolf Steiner School of Pune", "state": "Maharashtra", "year": null, "latitude": 18.5204, "longitude": 73.8567},
    {"name": "Bal-Anand", "state": "Maharashtra", "year": 1984, "latitude": 18.5204, "longitude": 73.8567},
    {"name": "Gram Mangal", "state": "Maharashtra", "year": 1982, "latitude": 18.5204, "longitude": 73.8567},
    {"name": "Sadhana Village", "state": "Maharashtra", "year": 1994, "latitude": 18.5204, "longitude": 73.8567},
    {"name": "Sahyadri School", "state": "Maharashtra", "year": 1995, "latitude": 18.5204, "longitude": 73.8567},
    {"name": "Swadha School", "state": "Maharashtra", "year": 2012, "latitude": 18.5204, "longitude": 73.8567},
    {"name": "Comini Microschool", "state": "Maharashtra", "year": 2021, "latitude": 18.9750, "longitude": 72.8258},
    {"name": "Sweven Montessori", "state": "Maharashtra", "year": 2018, "latitude": 19.1407, "longitude": 72.9338},
    {"name": "Shishyaa", "state": "Maharashtra", "year": 2015, "latitude": 19.0189, "longitude": 72.8574},
    {"name": "Dummy School - Delhi 1", "state": "Delhi", "year": 2002, "latitude": 28.65, "longitude": 77.22},
    {"name": "Dummy School - Delhi 2", "state": "Delhi", "year": 2015, "latitude": 28.58, "longitude": 77.15},
    {"name": "Dummy School - Delhi 3", "state": "Delhi", "year": 1998, "latitude": 28.72, "longitude": 77.30},
    {"name": "Mirambika Sri Aurobindo Ashram", "state": "Delhi", "year": 1981, "latitude": 28.7041, "longitude": 77.1025},
    {"name": "Ukti - The Delhi Waldorf School", "state": "Delhi", "year": 2013, "latitude": 28.7041, "longitude": 77.1025},
    {"name": "ITTC Primary School", "state": "Delhi", "year": null, "latitude": 28.7041, "longitude": 77.1025},
    {"name": "Sri Atmananda Memorial School", "state": "Kerala", "year": 1987, "latitude": 8.5241, "longitude": 76.9366},
    {"name": "The Gurukul", "state": "Kerala", "year": 1992, "latitude": 8.5241, "longitude": 76.9366},
    {"name": "Adharshila Learning Centre", "state": "Kerala", "year": 1998, "latitude": 8.5241, "longitude": 76.9366},
    {"name": "Dummy School - Karnataka 1", "state": "Karnataka", "year": 2005, "latitude": 12.90, "longitude": 77.65},
    {"name": "Dummy School - Karnataka 2", "state": "Karnataka", "year": 2018, "latitude": 13.02, "longitude": 77.55},
    {"name": "Mirambika Sri Aurobindo Ashram", "state": "Delhi", "year": 1981, "latitude": 28.7041, "longitude": 77.1025},
    {"name": "Ukti - The Delhi Waldorf School", "state": "Delhi", "year": 2013, "latitude": 28.7041, "longitude": 77.1025},
    {"name": "ITTC Primary School", "state": "Delhi", "year": null, "latitude": 28.7041, "longitude": 77.1025},
    {"name": "Sri Atmananda Memorial School", "state": "Kerala", "year": 1987, "latitude": 8.5241, "longitude": 76.9366},
    {"name": "The Gurukul", "state": "Kerala", "year": 1992, "latitude": 8.5241, "longitude": 76.9366},
    {"name": "Adharshila Learning Centre", "state": "Kerala", "year": 1998, "latitude": 8.5241, "longitude": 76.9366},
    {"name": "Dummy School - Telangana 1", "state": "Telangana", "year": 2010, "latitude": 17.40, "longitude": 78.50},
    {"name": "Dummy School - Telangana 2", "state": "Telangana", "year": 2003, "latitude": 17.35, "longitude": 78.45},
    {"name": "ISP Foundation Public School", "state": "Maharashtra", "year": 1981, "latitude": 18.5204, "longitude": 73.8567},
    {"name": "Aaverbhav - The School", "state": "Andhra Pradesh", "year": null, "latitude": 17.3850, "longitude": 78.4867},
    {"name": "Gurukula - A Waldorf Inspired School", "state": "Andhra Pradesh", "year": 1971, "latitude": 17.3850, "longitude": 78.4867},
    {"name": "Rishi Valley Education Centre", "state": "Andhra Pradesh", "year": 1926, "latitude": 17.3850, "longitude": 78.4867},
    {"name": "Sadhana Vidya Nilayam", "state": "Andhra Pradesh", "year": 1959, "latitude": 17.3850, "longitude": 78.4867},
    {"name": "Sloka - The Steiner school in Hyderabad", "state": "Andhra Pradesh", "year": 1997, "latitude": 17.3850, "longitude": 78.4867},
    {"name": "Sumavanam Village School", "state": "Andhra Pradesh", "year": 1982, "latitude": 17.3850, "longitude": 78.4867},
    {"name": "The Peepal Grove School", "state": "Andhra Pradesh", "year": 2006, "latitude": 17.3850, "longitude": 78.4867},
    {"name": "Aarambh-Delhi Waldorf School", "state": "Andhra Pradesh", "year": 2013, "latitude": 17.3850, "longitude": 78.4867},
    {"name": "Akshar Nandan School", "state": "Madhya Pradesh", "year": 1998, "latitude": 23.2599, "longitude": 77.4126},
    {"name": "Digantar School", "state": "Rajasthan", "year": 1978, "latitude": 26.9124, "longitude": 75.7873},
    {"name": "Bodhi Tree Campus", "state": "Tamil Nadu", "year": 2010, "latitude": 13.0827, "longitude": 80.2707},
    {"name": "Chinmaya Vidyalaya", "state": "Tamil Nadu", "year": 1968, "latitude": 13.0827, "longitude": 80.2707},
    {"name": "Riverdale International School", "state": "Tamil Nadu", "year": 2009, "latitude": 13.0827, "longitude": 80.2707},
    {"name": "Vidya Vanam", "state": "Tamil Nadu", "year": 2007, "latitude": 13.0827, "longitude": 80.2707},
    {"name": "Banyan Tree School", "state": "Punjab", "year": 1986, "latitude": 30.7333, "longitude": 76.7794},
    {"name": "The Heritage School", "state": "Haryana", "year": 2003, "latitude": 28.4595, "longitude": 77.026}]